<?xml version="1.0" encoding="utf-8" standalone="yes"?>
<gpx version="1.1" creator="https://harzwandern.jansurlaub.de">
<metadata>
  <name>HWN_Sonderstempel.gpx</name>
  <desc>selbstverfasste standalone GPX-Datei</desc>
  <author>
   <name>Jan Peters</name>
  </author>
</metadata>
<wpt lat="51.868116667" lon="10.87805">
  <ele>168.0000000</ele>
  <name>9905 Glasmanufaktur Harzkristall</name>
  <cmt>Glasmanufaktur Harzkristall</cmt>
  <desc>Bereits im Jahr 2012 wurde mit der Renaturierung der ehemaligen Deponie der Glashütte begonnen. Die Gliederung des Geländes ist strahlenförmig strukturiert. Auf der höchsten Erhebung befindet sich eine Aussichtsplattform mit der Stempelstelle.</desc>
</wpt>
<wpt lat="52.125483333" lon="11.629666667">
  <ele>48.0000000</ele>
  <name>9906 Museum für Naturkunde</name>
  <cmt>Museum für Naturkunde</cmt>
  <desc>Die weite Feldlandschaft der Magdeburger Börde und Berglandschaft des Harzes mit Wäldern, Höhlen und alten Bergwerksgängen werden in dem größten Ausstellungssaal des Museums inszeniert. Über Treppen gelangt man in die zweite begehbare Ebene, die von einer künstlichen Felslandschaft umschlossen wird.</desc>
</wpt>
<wpt lat="51.582033333" lon="10.773216667">
  <ele>232.0000000</ele>
  <name>9909 Ahornpark</name>
  <cmt>Ahornpark</cmt>
  <desc>Der Ahornpark Ilfeld (Curie-Park) ist seit einigen Jahren ein touristisches Aushängeschild für Ilfeld. Um die 270 Ahornbäume wurden in den vergangenen Jahren gepflanzt und durch Baumpaten finanziert.</desc>
</wpt>
<wpt lat="51.869916667" lon="10.563183333">
  <ele>331.0000000</ele>
  <name>9910 Baumwipfelpfad Bad Harzburg</name>
  <cmt>Baumwipfelpfad Bad Harzburg</cmt>
  <desc>Hoch hinaus geht es seit Mai 2015 auf dem Baumwipfelpfad Harz in Bad Harzburg. Jung und Junggebliebene haben hier die Möglichkeit barrierefrei die Natur aus einer völlig neuen Perspektive kennen zu lernen. Am Fuße des Burgbergs mitten im Kurpark gelegen, startet der rund 1000m lange Pfad und führt den Gast auf über 20m Höhe durch die Baumkronen. Dabei erfährt der Gast Informatives  zur Holzwirtschaft, Natur  und Umwelt.</desc>
</wpt>
<wpt lat="51.740566667" lon="10.893916667">
  <ele>347.0000000</ele>
  <name>9915 TITAN-RT</name>
  <cmt>TITAN-RT</cmt>
  <desc>Diese spektakuläre Sonderstempelstelle der Harzer Wandernadel befindet sich auf der Hängeseilbrücke TITAN-RT, 100m über dem Abgrund direkt an der Startgondel des Pendelsprungs "Gigaswing".</desc>
</wpt>
<wpt lat="51.839866667" lon="10.773066667">
  <ele>238.0000000</ele>
  <name>9916 Transall</name>
  <cmt>Transall</cmt>
  <desc>Der auffällige grüne Stempelkasten befindet sich auf der Terrasse des Luftfahrtmuseums, direkt am Aufgang zur Transall "Silberne Gams".</desc>
</wpt>
<wpt lat="51.725316667" lon="10.2541">
  <ele>236.0000000</ele>
  <name>9918 Museum am Ritterhaus</name>
  <cmt>Museum am Ritterhaus</cmt>
  <desc>Seit 1997 versteht sich das Museum am Ritterhaus auch als Begegnungsstätte und Kulturzentrum für die Bürger der Stadt Osterode.</desc>
</wpt>
<wpt lat="51.8167" lon="10.918066667">
  <ele>250.0000000</ele>
  <name>9919 Waldlehrpfad Heimburg</name>
  <cmt>Waldlehrpfad Heimburg</cmt>
  <desc>Freuen Sie sich auf Begegnungen wie mit Eduard, dem Eichhörnchen oder dem Specht Siegfried. Sie haben gemeinsam mit unzähligen anderen Waldlebewesen, den Pflanzen und Bäumen hier ihr Zuhause. In Holz geschnitzte Waldbewohner weisen den Weg, der am Parkplatz am Bärenstein beginnt und in den Wald hinauf führt, wo auch der Stempelkasten zu finden ist.</desc>
</wpt>
<wpt lat="51.745233333" lon="10.615866667">
  <ele>743.0000000</ele>
  <name>9921 Rodelhaus Braunlage</name>
  <cmt>Rodelhaus Braunlage</cmt>
  <desc>Was Sie im Rodelhaus schmecken, riechen, sehen und erleben sind Produkte, die gut, sauber und fair erzeugt und gehandelt werden. Entdecken Sie die Entschleunigung im Genuss: Slow Food. Das Rodelhaus liegt etwa 100m entfernt von der Mittelstation des Wurmbergseilbahn.</desc>
</wpt>
<wpt lat="51.833216667" lon="10.7844">
  <ele>246.0000000</ele>
  <name>9922 Tourist Information Wernigerode</name>
  <cmt>Tourist Information Wernigerode</cmt>
  <desc>Neben dem Servicebüro der HWN in Blankenburg, ist die Tourist Information Wernigerode der größte Anlaufpunkt für Stempelwanderer.</desc>
</wpt>
<wpt lat="51.815566667" lon="10.776516667">
  <ele>440.0000000</ele>
  <name>9923 Märchenweg Wernigerode</name>
  <cmt>Märchenweg Wernigerode</cmt>
  <desc>Seit 2015 erfreut der Naturlehrpfad "Wernigeröder Märchenweg" die kleinen Entdecker und Wanderer unter uns. Die Wanderung voller Spiel und Spaß wird von 3 bekannten Märchen der Gebrüder Grimm begleitet: Rotkäppchen, Hänsel und Gretel, sowie Rapunzel. Start des Weges ist der Hasseröder Ferienpark und er ist knapp 2,5km lang.</desc>
</wpt>
<wpt lat="51.701866667" lon="10.86845">
  <ele>495.0000000</ele>
  <name>9924 Pullman City</name>
  <cmt>Pullman City</cmt>
  <desc>Kurz hinter Hasselfelde liegt die Westernstadt Pullman City. Dich erwarten actionreiche Westernshows, authentische Darbietungen und eine Welt voller Erlebnisse.</desc>
</wpt>
<wpt lat="51.70085" lon="10.944916667">
  <ele>455.0000000</ele>
  <name>9925 Jagdschloss Windenhütte</name>
  <cmt>Jagdschloss Windenhütte</cmt>
  <desc>Im Herzen des Oberharzes, weitab vom städtischen Trubel, finden Sie Ruhe und Erholung im Jagdschloss Windenhütte. Die herrliche Lage mitten im Mischwald mit Blick auf eine beschauliche Lichtung lädt zum Verweilen ein.</desc>
</wpt>
<wpt lat="51.7676" lon="10.815066667">
  <ele>444.0000000</ele>
  <name>9926 Schausägewerk Ehrt</name>
  <cmt>Schausägewerk Ehrt</cmt>
  <desc>Das Sägewerk wurde 1887 gegründet und war noch bis 1992 als Familienunternehmen in Betrieb. Um das wissen dieses historischen Handwerks zu bewahren, ist ein Schausägewerk entstanden, das sich sehen lassen kann.</desc>
</wpt>
<wpt lat="51.689666667" lon="10.348483333">
  <ele>444.0000000</ele>
  <name>9927 Auerhuhngehege</name>
  <cmt>Auerhuhngehege</cmt>
  <desc>In den Buchenwäldern des Südharzes bei Lonau liegt das Auerhuhn-Schaugehege des Nationalparks. Es beheimatet ehemals in Norddeutschland heimische Raufußarten; Auerhuhn und Birkhuhn.</desc>
</wpt>
<wpt lat="51.820633333" lon="10.757">
  <ele>286.0000000</ele>
  <name>9928 Hasseröder Ferienpark</name>
  <cmt>Hasseröder Ferienpark</cmt>
  <desc>Der am Rande von Wernigerode im Jahr 2005 eröffnete Ferienpark, ist der ideale Ort für Erholungssuchende, Aktivurlauber und Familien. Das Zentralgebäude beherbergt ein großes Erlebnisbad mit einer über 100m langen Rutsche, sowie einer Wellnesslandschaft mit Saunawelt.</desc>
</wpt>
<wpt lat="51.74605" lon="10.696283333">
    <ele>543.0000000</ele>
  <name>9929 Waldbad Elend</name>
  <cmt>Waldbad Elend</cmt>
  <desc>Das Waldfreibad in Elend befindet sich in traumhafter Lage am Rande des Harzer waldes und besitzt einen liebevoll gestalteten Rosenteich. Die Kinder können sich im Schwimm- und Planschbecken oder im großzügigen Außenbereich austoben und spielen. Daneben befindet sich eine große Liegewiese mit Beachvolleyball-Feld.</desc>
</wpt>
<wpt lat="51.70775" lon="10.602083333">
  <ele>588.0000000</ele>
  <name>9932 Waldcafe Forellenteich</name>
  <cmt>Waldcafe Forellenteich</cmt>
  <desc>Idyllisch in Braunlage im Brunnenbachstal gelegen, im Sommer wie auch im Winter bei einem Spaziergang oder als Rast bei Wanderungen gut zu Fuß zu erreichen.</desc>
</wpt>
<wpt lat="51.764283333" lon="10.661833333">
  <ele>739.0000000</ele>
  <name>9933 Stammhaus Schierker Feuerstein</name>
  <cmt>Stammhaus Schierker Feuerstein</cmt>
  <desc>Ein Rundgang durch das Stammhaus, die Apotheke "Zum Roten Fingerhut" in Schierke kommt einer Zeitreise gleich. Lass dich in den renovierten Ausstellungsräumen von der Geschichte des Feuersteins begeistern und erfahre, was der Granit der Feuersteinklippen mit dem Kräuter-Halbbitter zu tun hat.</desc>
</wpt>
<wpt lat="51.8214" lon="10.744366667">
  <ele>449.0000000</ele>
  <name>9935 Argenta Wohnpark</name>
  <cmt>Argenta Wohnpark</cmt>
  <desc>Auf dem südlich und sehr idyllisch gelegenen Gelände der ehemaligen "Argenta Schokoladenfabrik Hasserode" in der Burgmühlenstr. ist die Errichtung kleiner Mehrfamilienhäusern mit 6-8 Wohneinheiten geplant. Das Gelände befindet sich direkt am Waldrand und wird begrenzt durch das Flüsschen Holtemme.</desc>
</wpt>
<wpt lat="51.515016667" lon="10.787966667">
  <ele>201.0000000</ele>
  <name>9935 Park Hohenrode</name>
  <cmt>Park Hohenrode</cmt>
  <desc>Der Park Hohenrode ist heute die größte historische Parkanlage in Nordhausen. 10 Hektar Park mit Villa, Nebengebäude und Pavillon bilden ein herausragendes Zeugnis des 19. Jahrhunderts.</desc>
</wpt>
<wpt lat="51.63265" lon="10.583616667">
  <ele>527.0000000</ele>
  <name>9939 Bienenpfad Wieda</name>
  <cmt>Bienenpfad Wieda</cmt>
  <desc>Der Lehrpfad am Wanderweg vom Glockenturm Wiedas Richtung Käseberg informiert auf mehreren Infotafeln über Bienen.</desc>
</wpt>
<wpt lat="51.7884" lon="10.96">
  <ele>244.0000000</ele>
  <name>9940 Bundeswehr Ausstellung</name>
  <cmt>Bundeswehr Ausstellung</cmt>
  <desc>Die Ausstellung bietet einen besonderen Einblick in die Feldwebel-Anton-Schmid-Kaserne und der Untertageanlage (UTA) und befindet sich im kleinen Schloss Blankenburg über die Tourist Information!</desc>
</wpt>
<wpt lat="51.4974" lon="10.3848">
  <ele>445.0000000</ele>
  <name>9947 Skywalk Sonnenstein</name>
  <cmt>Skywalk Sonnenstein</cmt>
  <desc>Der Stempelkasten steht am Skywalk auf dem Sonnenstein im Ortsteil Holungen der Landgemeinde Sonnenstein im Thüringer Landkreis eichsfeld. Ein Besuch lohnt sich, denn man wird mit einem malerischen Blick über die hügelige Eichsfelder Landschaft bis nach Göttingen und zum Brocken belohnt.</desc>
</wpt>
<wpt lat="51.87055" lon="10.569716667">
  <ele>524.0000000</ele>
  <name>9948 Baumschwebebahn</name>
  <cmt>Baumschwebebahn</cmt>
  <desc>Mit der Baumschwebebahn bei Bad Harzburg kann man 1000m bei bis zu 15kmh durch die Wipfel schweben und hat teilweise einen tollen Blick auf den Brocken.</desc>
</wpt>
<wpt lat="51.6313" lon="10.47605">
  <ele>418.0000000</ele>
  <name>9949 Oder Minigolf Bad Lauterberg</name>
  <cmt>Oder Minigolf Bad Lauterberg</cmt>
  <desc>Oder Minigolf Bad Lauterberg</desc>
</wpt>
<wpt lat="51.83295" lon="10.783666667">
  <ele>429.0000000</ele>
  <name>9950 Harzmuseum</name>
  <cmt>Harzmuseum</cmt>
  <desc>Harzmuseum</desc>
</wpt>
<wpt lat="51.665766667" lon="10.70635">
  <ele>569.0000000</ele>
  <name>9951 Rotes Sofa</name>
  <cmt>Rotes Sofa</cmt>
  <desc>Das riesige rote Sofa bei Benneckenstein diente 2019 als Kulisse des Festivals der Darstellenden Künste "Theaternatur". Der Stempel ist passenderweise in rot gehalten.</desc>
</wpt>
<wpt lat="51.803966667" lon="10.511533333">
  <ele>668.0000000</ele>
  <name>9952 United Kids Foundation</name>
  <cmt>United Kids Foundation</cmt>
  <desc>Im Kellwassertal zwischen Torfhaus und der Okertalsperre, pflanzt die Volksbank Braunschweig-Wolfsburg auf ca. 30000m² eines abgestorbenen Fichtenwaldes, mit Kindern aus benachteiligten Familen Bäume speziellausgewählter Arten für einen neuen Mischwald.</desc>
</wpt>
<wpt lat="51.7435" lon="10.684733333">
  <ele>543.0000000</ele>
  <name>9953 Holzkirche Elend</name>
  <cmt>Holzkirche Elend</cmt>
  <desc>Die Holzkirche Elend ist ein Sakralbau der Gemeinde Oberharz am Brocken. Die Kirche wird von der Evangelischen Stadtkirchengemeinde Elbingerode genutzt. Sie gilt als die kleinste Holzkirche Deutschlands und wurde am 27. Juni 1897 geweiht.</desc>
</wpt>
<wpt lat="51.727783333" lon="10.252883333">
  <ele>274.0000000</ele>
  <name>9954 Harzer-Hexen Stieg</name>
  <cmt>Harzer-Hexen Stieg</cmt>
  <desc>Die Stempelstelle steht in der Innenstadt von Osterode am Eingang zum Harzer-Hexen Stieg, direkt vor dem "Eselstreiber Denkmal"</desc>
</wpt>
<wpt lat="51.777433333" lon="10.915">
  <ele>466.0000000</ele>
  <name>9955 Nationales Naturerbe</name>
  <cmt>Nationales Naturerbe</cmt>
  <desc>Anlässlich des 10-jährigen Jubiläums des Naturerbewaldes in Blankenburg hat die Stiftung wumwelt, Natur- und Klimaschutz des Landes Sachsen-Anhalt, die Harzer Wandernadel und die Stadt Blankenburg am 05.Juni 2021 diese Stempelstelle aufgestellt.</desc>
</wpt>
<wpt lat="51.898633333" lon="10.447616667">
  <ele>355.0000000</ele>
  <name>9956 Wald für Morgen</name>
  <cmt>Wald für Morgen</cmt>
  <desc>Der Verein "waldfuermorgen.ev" ermöglicht es, dass jedes Goslarer Kind bis zum 1100ten Stadtjubiläum im Jahr 2022 einen Baum pflanzen kann. Die Bürgerstiftung Goslar hatte die Idee an dieser Stelle einen Stempelkasten aufzustellen und diesen auch bezahlt.</desc>
</wpt>
</gpx>
